[
    {
        "name": "weak cap b4",
        "type": 2,
        "streetAddress" : "420 Castro St",
        "city": "San Francisco",
        "state": "CA",
        "country": "US",
        "zip": "94114",
        "telephoneNumber": "(806) 262-3537",
        "picture": "assets/i/business-logo-3.png",
        "description": "Webez mamukiuwa puzmo moghe la so leje duna tuhu mo ufewaj ca ti nome. Zirbael ergamuf waez jomvufnon wirorveb mase gehpado gawmiv gabzabe teizew va za ki waodis ijfew ap tecu buwro. Iduliozu zogesmuc uhju obiab zoskinut deza pij tarubutet koaz sumi tos iho nevijeesu gamuwu.",
        "businessHours": "3:00-9:00",
        "website": "http://ve.org//",
        "braintreeAccountId": "fake_business_4",
        "conditions": [
            "A Founder$hare may only be redeemed through a smartphone.",
            "A Founder$hare does not have any service or inactivity fees of any type."
        ],
        "coordinates": [
            37.7620978,
            -122.4353927
        ],
        "isSubscriptionExpired": false,
        "isVerificationFeePaid": true,
        "isVerified": true,
        "_id": "55472581e287eecb0ff510aa"
    },
    {
        "name": "sore dock b3",
        "type": 2,
        "streetAddress" : "420 Castro St",
        "city": "San Francisco",
        "state": "CA",
        "country": "US",
        "zip": "94114",
        "telephoneNumber": "(848) 835-3820",
        "picture": "assets/i/business-logo-3.png",
        "description": "Inonajilo ucohaar hebaspa onejisol oko me memi pemse vo mif lice hipih. Le ca usi ufbe liz potrotwoh ekiadodis kew bem kihafhi osaperu hepdas siolu. Surjim vi jafcu po noc guok ka welis poge pazupadu ce cu nojab butufoz zut kel ida.",
        "businessHours": "5:00-12:00",
        "website": "http://hoc.edu//",
        "braintreeAccountId": "fake_business_3",
        "conditions": [
            "A Founder$hare may only be redeemed through a smartphone.",
            "A Founder$hare does not have any service or inactivity fees of any type."
        ],
        "coordinates": [
            37.7620978,
            -122.4353927
        ],
        "isSubscriptionExpired": false,
        "isVerificationFeePaid": true,
        "isVerified": true,
        "_id": "55472581e287eecb0ff510ab"
    },
    {
        "name": "sweet quill b6",
        "type": 2,
        "streetAddress" : "69 7th Ave S",
        "city": "New York",
        "state": "NY",
        "country": "US",
        "zip": "10014",
        "telephoneNumber": "(506) 917-3355",
        "picture": "assets/i/business-logo-1.png",
        "description": "Narfafo dibi cuzraz pan bommi lanvob iksemoj ivised ge porebra adviefu oplitse fi vuhi coc orocow. Akbiw fodibid zagi irhekas po nederovav hevuwip de ronipirak la famej si sanzat jek wum duzvaiz. Vutzukka za ig ugijapive les ni cimcebca wewpugod serure fefgu rarme bavfujet rufi vujkuw wummicov fafezuher.",
        "businessHours": "4:00-12:00",
        "website": "http://lizumha.io//",
        "braintreeAccountId": "fake_business_6",
        "conditions": [
            "A Founder$hare may only be redeemed through a smartphone.",
            "A Founder$hare does not have any service or inactivity fees of any type."
        ],
        "coordinates": [
            40.7322097,
            -74.00337499999999
        ],
        "isSubscriptionExpired": false,
        "isVerificationFeePaid": true,
        "isVerified": true,
        "_id": "55472581e287eecb0ff510ac"
    },
    {
        "name": "squalid statement b8",
        "type": 3,
        "streetAddress" : "333 Bush St",
        "city": "San Francisco",
        "state": "CA",
        "country": "US",
        "zip": "94104",
        "telephoneNumber": "(437) 441-7323",
        "picture": "assets/i/business-logo-3.png",
        "description": "Anrupvo ot nefjofbu ses lislazal juc go telnow uvisan pogod jiw ceijubeb kofigaw vuv di cojukziv hecvozkon topraggu. Lebihcu ajonah hapow wuvjasjof eti vorlujir aha wa coozki bi ewwel cok je ukizi ked curhe dejjer nev. Cebhi cuvlun berbazpu kehsu of ha geloh hotafi duhugo tu lebzifaw onagis surat ma.",
        "businessHours": "5:00-9:00",
        "website": "http://wowzos.org//",
        "braintreeAccountId": "fake_business_8",
        "conditions": [
            "A Founder$hare may only be redeemed through a smartphone.",
            "A Founder$hare does not have any service or inactivity fees of any type."
        ],
        "coordinates": [
            37.7907302,
            -122.4029934
        ],
        "isSubscriptionExpired": false,
        "isVerificationFeePaid": true,
        "isVerified": true,
        "_id": "55472581e287eecb0ff510ad"
    },
    {
        "name": "voracious earthquake b7",
        "type": 1,
        "address": "413 8th Ave New York, NY 10001",
        "streetAddress" : "413 8th Ave",
        "city": "New York",
        "state": "NY",
        "country": "US",
        "zip": "10001",
        "telephoneNumber": "(327) 273-8882",
        "picture": "assets/i/business-logo-2.png",
        "description": "Wocemama dertuh ato jesu wak za nu veswob noped ziv ovbe suzbep cizado zihov wat givo wehvika. Ok ihtape huifwa ba bo saro emi bebovoco mehsottoh manmubagu opharfe tah ruf deno owavotte popjogup hetizupuv. Owemu da rahjosit ji pa luffimcal jorfifoj mah ogreg pibfohil lato mepfevij obiet.",
        "businessHours": "5:00-10:00",
        "website": "http://duvmor.io//",
        "braintreeAccountId": "fake_business_7",
        "conditions": [
            "A Founder$hare may only be redeemed through a smartphone.",
            "A Founder$hare does not have any service or inactivity fees of any type."
        ],
        "coordinates": [
            40.750205,
            -73.99532099999999
        ],
        "isSubscriptionExpired": false,
        "isVerificationFeePaid": true,
        "isVerified": true,
        "_id": "55472581e287eecb0ff510ae"
    },
    {
        "name": "joyous society b9",
        "type": 2,
        "streetAddress" : "2109 Polk St",
        "city": "San Francisco",
        "state": "CA",
        "country": "US",
        "zip": "94109",
        "telephoneNumber": "(376) 802-8526",
        "picture": "assets/i/business-logo-3.png",
        "description": "Vog uc nupih vutpa alozzik sun wodbilub logoweif dupomis bafojcu dikpad baelidut capkuf fiku owna ziflubi. Rilel lode uco zuamwa osha cinci mizsibvow kefcu juh uriga ziw fara cog mocize pusu sasku evite mafzozuw. Fanfic ge aw lasgenid pudomip okzu uwre upawaar zavlole vuk fonpar vu mutiemu.",
        "businessHours": "4:00-12:00",
        "website": "http://kon.io//",
        "braintreeAccountId": "fake_business_9",
        "conditions": [
            "A Founder$hare may only be redeemed through a smartphone.",
            "A Founder$hare does not have any service or inactivity fees of any type."
        ],
        "coordinates": [
            37.7962198,
            -122.4221996
        ],
        "isSubscriptionExpired": false,
        "isVerificationFeePaid": true,
        "isVerified": true,
        "_id": "55472581e287eecb0ff510af"
    },
    {
        "name": "vagabond clock b10",
        "type": 2,
        "streetAddress" : "509 Valencia St",
        "city": "San Francisco",
        "state": "CA",
        "country": "US",
        "zip": "94110",
        "telephoneNumber": "(464) 215-7803",
        "picture": "assets/i/business-logo-1.png",
        "description": "Wofov ti tazcu bo buz das narhosec fu oh wutno vamabga domcaza nor. Tehih weup osivowo fenjej ha higzo pelu paf gaf lu mepazef mel jed to geltoj civ. Dukuk gib loja rijozcom wease aruces betoli nofol zicaj rotgo efece hu ba.",
        "businessHours": "1:00-10:00",
        "website": "http://ruvwos.com//",
        "braintreeAccountId": null,
        "conditions": [
            "A Founder$hare may only be redeemed through a smartphone.",
            "A Founder$hare does not have any service or inactivity fees of any type."
        ],
        "coordinates": [
            37.7647984,
            -122.4218754
        ],
        "isSubscriptionExpired": false,
        "isVerificationFeePaid": false,
        "isVerified": false,
        "_id": "55472581e287eecb0ff510b0"
    },
    {
        "name": "inconclusive flight b2",
        "type": 1,
        "streetAddress" : "2109 Polk St",
        "city": "San Francisco",
        "state": "CA",
        "country": "US",
        "zip": "94109",
        "telephoneNumber": "(476) 321-8260",
        "picture": "assets/i/business-logo-2.png",
        "description": "Vircok vad taguhabop je nenelo fu gapad ip uwhu agavovzar re heapfez nilirej. Eda vihitju ciggib ka veswurcoz lara kocnuw fop japiim biukele je vofwop. Ilehahco irih nah kuewa fo cojkucul zakfaaw ozupocib da ze ibjaak ru vablov tarour unke zak jovjof.",
        "businessHours": "1:00-9:00",
        "website": "http://kijeive.gov//",
        "braintreeAccountId": "fake_business_2",
        "conditions": [
            "A Founder$hare may only be redeemed through a smartphone.",
            "A Founder$hare does not have any service or inactivity fees of any type."
        ],
        "coordinates": [
            37.7962198,
            -122.4221996
        ],
        "isSubscriptionExpired": false,
        "isVerificationFeePaid": true,
        "isVerified": true,
        "_id": "55472581e287eecb0ff510a7"
    },
    {
        "name": "stormy camera b5",
        "type": 2,
        "streetAddress" : "69 7th Ave S",
        "city": "New York",
        "state": "NY",
        "country": "US",
        "zip": "10014",
        "telephoneNumber": "(919) 972-2900",
        "picture": "assets/i/business-logo-2.png",
        "description": "Rozzoc kiofugeb tiozguh ifi zateh hi cezfu ret la ri do hozupez ok wev. Ic vo zi taojaja terotiw og pifih du ifaceflic ogi ugaomo cocibne ela. Je bunocehu ufral feg zacav dimdaw sod rasmusmar bejak jebupgi fogtap bomdeccig marwoska otizepmoc.",
        "businessHours": "4:00-11:00",
        "website": "http://tutdeute.io//",
        "braintreeAccountId": "fake_business_5",
        "conditions": [
            "A Founder$hare may only be redeemed through a smartphone.",
            "A Founder$hare does not have any service or inactivity fees of any type."
        ],
        "coordinates": [
            40.7322097,
            -74.00337499999999
        ],
        "isSubscriptionExpired": false,
        "isVerificationFeePaid": true,
        "isVerified": true,
        "_id": "55472581e287eecb0ff510a8"
    },
    {
        "name": "far attack b1",
        "type": 3,
        "streetAddress" : "1737 Haight St",
        "city": "San Francisco",
        "state": "CA",
        "country": "US",
        "zip": "94117",
        "telephoneNumber": "(814) 980-7975",
        "picture": "assets/i/business-logo-3.png",
        "description": "Lo juib wavowi vof diovabab diwtefduz ifsatuc vopcakuse gev av kupmez re raren arire. Vewadewop ejjaehe uhkas diztudrag virba voh zekide ebrednut bu po wo lu hur docin noplu ro jopufetib devforo. Kiddec dawnuf igomeshir kodupne itfu wof badculah ag hih at rovviccac nijtehpeg baw zucbiftel.",
        "businessHours": "3:00-11:00",
        "website": "http://gev.edu//",
        "braintreeAccountId": "fake_business_1",
        "conditions": [
            "A Founder$hare may only be redeemed through a smartphone.",
            "A Founder$hare does not have any service or inactivity fees of any type."
        ],
        "coordinates": [
            37.7692614,
            -122.4512608
        ],
        "isSubscriptionExpired": false,
        "isVerificationFeePaid": true,
        "isVerified": true,
        "_id": "55472581e287eecb0ff510a9"
    }
]